[
  { "name": "Balod", "lat": 20.73, "lon": 81.2, "state": "Chhattisgarh" },
  { "name": "Baloda Bazar", "lat": 21.66, "lon": 82.16, "state": "Chhattisgarh" },
  { "name": "Balrampur", "lat": 23.11, "lon": 83.0, "state": "Chhattisgarh" },
  { "name": "Bastar", "lat": 19.07, "lon": 81.95, "state": "Chhattisgarh" },
  { "name": "Bemetara", "lat": 21.72, "lon": 81.53, "state": "Chhattisgarh" },
  { "name": "Bijapur", "lat": 19.82, "lon": 80.68, "state": "Chhattisgarh" },
  { "name": "Bilaspur", "lat": 22.08, "lon": 82.14, "state": "Chhattisgarh" },
  { "name": "Dantewada", "lat": 18.89, "lon": 81.35, "state": "Chhattisgarh" },
  { "name": "Dhamtari", "lat": 20.71, "lon": 81.55, "state": "Chhattisgarh" },
  { "name": "Durg", "lat": 21.19, "lon": 81.28, "state": "Chhattisgarh" },
  { "name": "Gariaband", "lat": 20.64, "lon": 82.06, "state": "Chhattisgarh" },
  { "name": "Gaurela-Pendra-Marwahi", "lat": 22.77, "lon": 81.96, "state": "Chhattisgarh" },
  { "name": "Janjgir-Champa", "lat": 22.01, "lon": 82.58, "state": "Chhattisgarh" },
  { "name": "Jashpur", "lat": 22.89, "lon": 84.14, "state": "Chhattisgarh" },
  { "name": "Kabirdham", "lat": 22.09, "lon": 81.24, "state": "Chhattisgarh" },
  { "name": "Kanker", "lat": 20.27, "lon": 81.49, "state": "Chhattisgarh" },
  { "name": "Kondagaon", "lat": 19.59, "lon": 81.66, "state": "Chhattisgarh" },
  { "name": "Korba", "lat": 22.35, "lon": 82.69, "state": "Chhattisgarh" },
  { "name": "Koriya", "lat": 23.66, "lon": 82.35, "state": "Chhattisgarh" },
  { "name": "Mahasamund", "lat": 21.1, "lon": 82.1, "state": "Chhattisgarh" },
  { "name": "Mungeli", "lat": 22.07, "lon": 81.68, "state": "Chhattisgarh" },
  { "name": "Narayanpur", "lat": 19.2, "lon": 81.24, "state": "Chhattisgarh" },
  { "name": "Raigarh", "lat": 21.9, "lon": 83.39, "state": "Chhattisgarh" },
  { "name": "Raipur", "lat": 21.25, "lon": 81.63, "state": "Chhattisgarh" },
  { "name": "Rajnandgaon", "lat": 21.1, "lon": 81.03, "state": "Chhattisgarh" },
  { "name": "Sukma", "lat": 18.39, "lon": 81.67, "state": "Chhattisgarh" },
  { "name": "Surajpur", "lat": 23.22, "lon": 82.87, "state": "Chhattisgarh" },
  { "name": "Surguja", "lat": 23.11, "lon": 83.2, "state": "Chhattisgarh" }
]
