[
  { "name": "Ahmedabad", "lat": 23.03, "lon": 72.58, "state": "Gujarat" },
  { "name": "Amreli", "lat": 21.60, "lon": 71.22, "state": "Gujarat" },
  { "name": "Anand", "lat": 22.56, "lon": 72.95, "state": "Gujarat" },
  { "name": "Aravalli", "lat": 23.23, "lon": 73.03, "state": "Gujarat" },
  { "name": "Banaskantha", "lat": 24.17, "lon": 72.43, "state": "Gujarat" },
  { "name": "Bharuch", "lat": 21.70, "lon": 72.99, "state": "Gujarat" },
  { "name": "Bhavnagar", "lat": 21.76, "lon": 72.15, "state": "Gujarat" },
  { "name": "Botad", "lat": 22.17, "lon": 71.67, "state": "Gujarat" },
  { "name": "Chhota Udaipur", "lat": 22.30, "lon": 74.01, "state": "Gujarat" },
  { "name": "Dahod", "lat": 22.84, "lon": 74.25, "state": "Gujarat" },
  { "name": "Dang", "lat": 20.75, "lon": 73.72, "state": "Gujarat" },
  { "name": "Devbhoomi Dwarka", "lat": 22.24, "lon": 69.09, "state": "Gujarat" },
  { "name": "Gandhinagar", "lat": 23.22, "lon": 72.68, "state": "Gujarat" },
  { "name": "Gir Somnath", "lat": 20.89, "lon": 70.40, "state": "Gujarat" },
  { "name": "Jamnagar", "lat": 22.47, "lon": 70.07, "state": "Gujarat" },
  { "name": "Junagadh", "lat": 21.52, "lon": 70.46, "state": "Gujarat" },
  { "name": "Kheda", "lat": 22.75, "lon": 72.68, "state": "Gujarat" },
  { "name": "Kutch", "lat": 23.73, "lon": 69.86, "state": "Gujarat" },
  { "name": "Mahisagar", "lat": 23.11, "lon": 73.47, "state": "Gujarat" },
  { "name": "Mehsana", "lat": 23.59, "lon": 72.38, "state": "Gujarat" },
  { "name": "Morbi", "lat": 22.82, "lon": 70.84, "state": "Gujarat" },
  { "name": "Narmada", "lat": 21.88, "lon": 73.50, "state": "Gujarat" },
  { "name": "Navsari", "lat": 20.95, "lon": 72.95, "state": "Gujarat" },
  { "name": "Panchmahal", "lat": 22.76, "lon": 73.60, "state": "Gujarat" },
  { "name": "Patan", "lat": 23.85, "lon": 72.12, "state": "Gujarat" },
  { "name": "Porbandar", "lat": 21.64, "lon": 69.60, "state": "Gujarat" },
  { "name": "Rajkot", "lat": 22.30, "lon": 70.80, "state": "Gujarat" },
  { "name": "Sabarkantha", "lat": 23.48, "lon": 73.05, "state": "Gujarat" },
  { "name": "Surat", "lat": 21.17, "lon": 72.83, "state": "Gujarat" },
  { "name": "Surendranagar", "lat": 22.70, "lon": 71.68, "state": "Gujarat" },
  { "name": "Tapi", "lat": 21.13, "lon": 73.42, "state": "Gujarat" },
  { "name": "Vadodara", "lat": 22.30, "lon": 73.18, "state": "Gujarat" },
  { "name": "Valsad", "lat": 20.63, "lon": 72.93, "state": "Gujarat" }
]
