[
  { "name": "Ambala", "lat": 30.38, "lon": 76.78, "state": "Haryana" },
  { "name": "Bhiwani", "lat": 28.79, "lon": 76.14, "state": "Haryana" },
  { "name": "Charkhi Dadri", "lat": 28.59, "lon": 76.27, "state": "Haryana" },
  { "name": "Faridabad", "lat": 28.41, "lon": 77.31, "state": "Haryana" },
  { "name": "Fatehabad", "lat": 29.51, "lon": 75.45, "state": "Haryana" },
  { "name": "Gurugram", "lat": 28.46, "lon": 77.03, "state": "Haryana" },
  { "name": "Hisar", "lat": 29.15, "lon": 75.72, "state": "Haryana" },
  { "name": "Jhajjar", "lat": 28.61, "lon": 76.66, "state": "Haryana" },
  { "name": "Jind", "lat": 29.32, "lon": 76.32, "state": "Haryana" },
  { "name": "Kaithal", "lat": 29.80, "lon": 76.40, "state": "Haryana" },
  { "name": "Karnal", "lat": 29.69, "lon": 76.99, "state": "Haryana" },
  { "name": "Kurukshetra", "lat": 29.97, "lon": 76.88, "state": "Haryana" },
  { "name": "Mahendragarh", "lat": 28.28, "lon": 76.14, "state": "Haryana" },
  { "name": "Nuh", "lat": 28.10, "lon": 77.00, "state": "Haryana" },
  { "name": "Palwal", "lat": 28.14, "lon": 77.33, "state": "Haryana" },
  { "name": "Panchkula", "lat": 30.69, "lon": 76.85, "state": "Haryana" },
  { "name": "Panipat", "lat": 29.39, "lon": 76.97, "state": "Haryana" },
  { "name": "Rewari", "lat": 28.19, "lon": 76.62, "state": "Haryana" },
  { "name": "Rohtak", "lat": 28.89, "lon": 76.59, "state": "Haryana" },
  { "name": "Sirsa", "lat": 29.53, "lon": 75.03, "state": "Haryana" },
  { "name": "Sonipat", "lat": 28.99, "lon": 77.02, "state": "Haryana" },
  { "name": "Yamunanagar", "lat": 30.13, "lon": 77.29, "state": "Haryana" }
]
