[
  { "name": "Bokaro", "lat": 23.79, "lon": 86.15, "state": "Jharkhand" },
  { "name": "Chatra", "lat": 24.21, "lon": 84.87, "state": "Jharkhand" },
  { "name": "Deoghar", "lat": 24.48, "lon": 86.7, "state": "Jharkhand" },
  { "name": "Dhanbad", "lat": 23.8, "lon": 86.45, "state": "Jharkhand" },
  { "name": "Dumka", "lat": 24.27, "lon": 87.25, "state": "Jharkhand" },
  { "name": "East Singhbhum", "lat": 22.8, "lon": 86.2, "state": "Jharkhand" },
  { "name": "Garhwa", "lat": 24.16, "lon": 83.81, "state": "Jharkhand" },
  { "name": "Giridih", "lat": 24.19, "lon": 86.3, "state": "Jharkhand" },
  { "name": "Godda", "lat": 24.83, "lon": 87.21, "state": "Jharkhand" },
  { "name": "Gumla", "lat": 23.04, "lon": 84.54, "state": "Jharkhand" },
  { "name": "Hazaribagh", "lat": 23.99, "lon": 85.36, "state": "Jharkhand" },
  { "name": "Jamtara", "lat": 23.96, "lon": 86.8, "state": "Jharkhand" },
  { "name": "Khunti", "lat": 23.08, "lon": 85.28, "state": "Jharkhand" },
  { "name": "Koderma", "lat": 24.47, "lon": 85.6, "state": "Jharkhand" },
  { "name": "Latehar", "lat": 23.74, "lon": 84.5, "state": "Jharkhand" },
  { "name": "Lohardaga", "lat": 23.43, "lon": 84.68, "state": "Jharkhand" },
  { "name": "Pakur", "lat": 24.63, "lon": 87.85, "state": "Jharkhand" },
  { "name": "Palamu", "lat": 24.03, "lon": 84.07, "state": "Jharkhand" },
  { "name": "Ramgarh", "lat": 23.63, "lon": 85.52, "state": "Jharkhand" },
  { "name": "Ranchi", "lat": 23.35, "lon": 85.33, "state": "Jharkhand" },
  { "name": "Sahebganj", "lat": 25.25, "lon": 87.63, "state": "Jharkhand" },
  { "name": "Seraikela Kharsawan", "lat": 22.7, "lon": 85.95, "state": "Jharkhand" },
  { "name": "Simdega", "lat": 22.62, "lon": 84.5, "state": "Jharkhand" },
  { "name": "West Singhbhum", "lat": 22.57, "lon": 85.37, "state": "Jharkhand" }
]
