[
  { "name": "Bagalkot", "lat": 16.18, "lon": 75.70, "state": "Karnataka" },
  { "name": "Ballari", "lat": 15.14, "lon": 76.92, "state": "Karnataka" },
  { "name": "Belagavi", "lat": 15.85, "lon": 74.50, "state": "Karnataka" },
  { "name": "Bengaluru Rural", "lat": 13.23, "lon": 77.48, "state": "Karnataka" },
  { "name": "Bengaluru Urban", "lat": 12.97, "lon": 77.59, "state": "Karnataka" },
  { "name": "Bidar", "lat": 17.91, "lon": 77.52, "state": "Karnataka" },
  { "name": "Chamarajanagar", "lat": 11.92, "lon": 76.94, "state": "Karnataka" },
  { "name": "Chikkaballapur", "lat": 13.43, "lon": 77.73, "state": "Karnataka" },
  { "name": "Chikkamagaluru", "lat": 13.32, "lon": 75.77, "state": "Karnataka" },
  { "name": "Chitradurga", "lat": 14.23, "lon": 76.40, "state": "Karnataka" },
  { "name": "Dakshina Kannada", "lat": 12.91, "lon": 75.40, "state": "Karnataka" },
  { "name": "Davanagere", "lat": 14.46, "lon": 75.92, "state": "Karnataka" },
  { "name": "Dharwad", "lat": 15.46, "lon": 75.01, "state": "Karnataka" },
  { "name": "Gadag", "lat": 15.43, "lon": 75.63, "state": "Karnataka" },
  { "name": "Hassan", "lat": 13.01, "lon": 76.10, "state": "Karnataka" },
  { "name": "Haveri", "lat": 14.79, "lon": 75.40, "state": "Karnataka" },
  { "name": "Kalaburagi", "lat": 17.33, "lon": 76.83, "state": "Karnataka" },
  { "name": "Kodagu", "lat": 12.42, "lon": 75.74, "state": "Karnataka" },
  { "name": "Kolar", "lat": 13.14, "lon": 78.13, "state": "Karnataka" },
  { "name": "Koppal", "lat": 15.35, "lon": 76.15, "state": "Karnataka" },
  { "name": "Mandya", "lat": 12.52, "lon": 76.90, "state": "Karnataka" },
  { "name": "Mysuru", "lat": 12.30, "lon": 76.65, "state": "Karnataka" },
  { "name": "Raichur", "lat": 16.21, "lon": 77.36, "state": "Karnataka" },
  { "name": "Ramanagara", "lat": 12.72, "lon": 77.28, "state": "Karnataka" },
  { "name": "Shivamogga", "lat": 13.93, "lon": 75.57, "state": "Karnataka" },
  { "name": "Tumakuru", "lat": 13.34, "lon": 77.10, "state": "Karnataka" },
  { "name": "Udupi", "lat": 13.34, "lon": 74.75, "state": "Karnataka" },
  { "name": "Uttara Kannada", "lat": 14.52, "lon": 74.68, "state": "Karnataka" },
  { "name": "Vijayapura", "lat": 16.83, "lon": 75.71, "state": "Karnataka" },
  { "name": "Yadgir", "lat": 16.77, "lon": 77.14, "state": "Karnataka" }
]
