[
  { "name": "Agar Malwa", "lat": 23.71, "lon": 76.02, "state": "Madhya Pradesh" },
  { "name": "Alirajpur", "lat": 22.31, "lon": 74.36, "state": "Madhya Pradesh" },
  { "name": "Anuppur", "lat": 23.10, "lon": 81.69, "state": "Madhya Pradesh" },
  { "name": "Ashoknagar", "lat": 24.58, "lon": 77.73, "state": "Madhya Pradesh" },
  { "name": "Balaghat", "lat": 21.81, "lon": 80.18, "state": "Madhya Pradesh" },
  { "name": "Barwani", "lat": 22.03, "lon": 74.90, "state": "Madhya Pradesh" },
  { "name": "Betul", "lat": 21.90, "lon": 77.90, "state": "Madhya Pradesh" },
  { "name": "Bhind", "lat": 26.56, "lon": 78.78, "state": "Madhya Pradesh" },
  { "name": "Bhopal", "lat": 23.26, "lon": 77.41, "state": "Madhya Pradesh" },
  { "name": "Burhanpur", "lat": 21.31, "lon": 76.23, "state": "Madhya Pradesh" },
  { "name": "Chhatarpur", "lat": 24.92, "lon": 79.59, "state": "Madhya Pradesh" },
  { "name": "Chhindwara", "lat": 22.06, "lon": 78.94, "state": "Madhya Pradesh" },
  { "name": "Damoh", "lat": 23.83, "lon": 79.44, "state": "Madhya Pradesh" },
  { "name": "Datia", "lat": 25.67, "lon": 78.47, "state": "Madhya Pradesh" },
  { "name": "Dewas", "lat": 22.97, "lon": 76.05, "state": "Madhya Pradesh" },
  { "name": "Dhar", "lat": 22.60, "lon": 75.30, "state": "Madhya Pradesh" },
  { "name": "Dindori", "lat": 22.94, "lon": 81.08, "state": "Madhya Pradesh" },
  { "name": "Guna", "lat": 24.65, "lon": 77.31, "state": "Madhya Pradesh" },
  { "name": "Gwalior", "lat": 26.22, "lon": 78.18, "state": "Madhya Pradesh" },
  { "name": "Harda", "lat": 22.34, "lon": 77.09, "state": "Madhya Pradesh" },
  { "name": "Hoshangabad", "lat": 22.75, "lon": 77.73, "state": "Madhya Pradesh" },
  { "name": "Indore", "lat": 22.72, "lon": 75.86, "state": "Madhya Pradesh" },
  { "name": "Jabalpur", "lat": 23.17, "lon": 79.95, "state": "Madhya Pradesh" },
  { "name": "Jhabua", "lat": 22.77, "lon": 74.59, "state": "Madhya Pradesh" },
  { "name": "Katni", "lat": 23.83, "lon": 80.39, "state": "Madhya Pradesh" },
  { "name": "Khandwa", "lat": 21.83, "lon": 76.35, "state": "Madhya Pradesh" },
  { "name": "Khargone", "lat": 21.82, "lon": 75.61, "state": "Madhya Pradesh" },
  { "name": "Maihar", "lat": 24.27, "lon": 80.76, "state": "Madhya Pradesh" },
  { "name": "Mandla", "lat": 22.60, "lon": 80.37, "state": "Madhya Pradesh" },
  { "name": "Mandsaur", "lat": 24.07, "lon": 75.07, "state": "Madhya Pradesh" },
  { "name": "Morena", "lat": 26.50, "lon": 78.00, "state": "Madhya Pradesh" },
  { "name": "Nagda", "lat": 23.46, "lon": 75.42, "state": "Madhya Pradesh" },
  { "name": "Narsinghpur", "lat": 22.95, "lon": 79.20, "state": "Madhya Pradesh" },
  { "name": "Neemuch", "lat": 24.47, "lon": 74.87, "state": "Madhya Pradesh" },
  { "name": "Niwari", "lat": 24.67, "lon": 79.00, "state": "Madhya Pradesh" },
  { "name": "Panna", "lat": 24.72, "lon": 80.19, "state": "Madhya Pradesh" },
  { "name": "Raisen", "lat": 23.33, "lon": 77.78, "state": "Madhya Pradesh" },
  { "name": "Rajgarh", "lat": 24.01, "lon": 76.73, "state": "Madhya Pradesh" },
  { "name": "Ratlam", "lat": 23.33, "lon": 75.04, "state": "Madhya Pradesh" },
  { "name": "Rewa", "lat": 24.53, "lon": 81.30, "state": "Madhya Pradesh" },
  { "name": "Sagar", "lat": 23.84, "lon": 78.74, "state": "Madhya Pradesh" },
  { "name": "Satna", "lat": 24.60, "lon": 80.83, "state": "Madhya Pradesh" },
  { "name": "Sehore", "lat": 23.20, "lon": 77.08, "state": "Madhya Pradesh" },
  { "name": "Seoni", "lat": 22.09, "lon": 79.55, "state": "Madhya Pradesh" },
  { "name": "Shahdol", "lat": 23.30, "lon": 81.36, "state": "Madhya Pradesh" },
  { "name": "Shajapur", "lat": 23.43, "lon": 76.27, "state": "Madhya Pradesh" },
  { "name": "Sheopur", "lat": 25.67, "lon": 76.70, "state": "Madhya Pradesh" },
  { "name": "Shivpuri", "lat": 25.43, "lon": 77.66, "state": "Madhya Pradesh" },
  { "name": "Sidhi", "lat": 24.42, "lon": 81.88, "state": "Madhya Pradesh" },
  { "name": "Singrauli", "lat": 24.20, "lon": 82.67, "state": "Madhya Pradesh" },
  { "name": "Tikamgarh", "lat": 24.74, "lon": 78.83, "state": "Madhya Pradesh" },
  { "name": "Ujjain", "lat": 23.18, "lon": 75.78, "state": "Madhya Pradesh" },
  { "name": "Umaria", "lat": 23.52, "lon": 80.84, "state": "Madhya Pradesh" },
  { "name": "Vidisha", "lat": 23.52, "lon": 77.81, "state": "Madhya Pradesh" }
]
