[
  { "name": "Ahmednagar", "lat": 19.09, "lon": 74.74, "state": "Maharashtra" },
  { "name": "Akola", "lat": 20.70, "lon": 77.00, "state": "Maharashtra" },
  { "name": "Amravati", "lat": 20.93, "lon": 77.75, "state": "Maharashtra" },
  { "name": "Aurangabad", "lat": 19.88, "lon": 75.32, "state": "Maharashtra" },
  { "name": "Beed", "lat": 18.99, "lon": 75.76, "state": "Maharashtra" },
  { "name": "Bhandara", "lat": 21.17, "lon": 79.65, "state": "Maharashtra" },
  { "name": "Buldhana", "lat": 20.53, "lon": 76.18, "state": "Maharashtra" },
  { "name": "Chandrapur", "lat": 19.95, "lon": 79.30, "state": "Maharashtra" },
  { "name": "Dhule", "lat": 20.90, "lon": 74.78, "state": "Maharashtra" },
  { "name": "Gadchiroli", "lat": 20.18, "lon": 80.00, "state": "Maharashtra" },
  { "name": "Gondia", "lat": 21.46, "lon": 80.20, "state": "Maharashtra" },
  { "name": "Hingoli", "lat": 19.72, "lon": 77.15, "state": "Maharashtra" },
  { "name": "Jalgaon", "lat": 21.01, "lon": 75.57, "state": "Maharashtra" },
  { "name": "Jalna", "lat": 19.84, "lon": 75.88, "state": "Maharashtra" },
  { "name": "Kolhapur", "lat": 16.70, "lon": 74.23, "state": "Maharashtra" },
  { "name": "Latur", "lat": 18.40, "lon": 76.58, "state": "Maharashtra" },
  { "name": "Mumbai City", "lat": 18.97, "lon": 72.82, "state": "Maharashtra" },
  { "name": "Mumbai Suburban", "lat": 19.07, "lon": 72.87, "state": "Maharashtra" },
  { "name": "Nagpur", "lat": 21.15, "lon": 79.09, "state": "Maharashtra" },
  { "name": "Nanded", "lat": 19.15, "lon": 77.32, "state": "Maharashtra" },
  { "name": "Nandurbar", "lat": 21.37, "lon": 74.24, "state": "Maharashtra" },
  { "name": "Nashik", "lat": 20.00, "lon": 73.78, "state": "Maharashtra" },
  { "name": "Osmanabad", "lat": 18.18, "lon": 76.04, "state": "Maharashtra" },
  { "name": "Palghar", "lat": 19.70, "lon": 72.77, "state": "Maharashtra" },
  { "name": "Parbhani", "lat": 19.27, "lon": 76.78, "state": "Maharashtra" },
  { "name": "Pune", "lat": 18.52, "lon": 73.85, "state": "Maharashtra" },
  { "name": "Raigad", "lat": 18.51, "lon": 73.18, "state": "Maharashtra" },
  { "name": "Ratnagiri", "lat": 16.99, "lon": 73.30, "state": "Maharashtra" },
  { "name": "Sangli", "lat": 16.86, "lon": 74.56, "state": "Maharashtra" },
  { "name": "Satara", "lat": 17.69, "lon": 74.01, "state": "Maharashtra" },
  { "name": "Sindhudurg", "lat": 16.02, "lon": 73.50, "state": "Maharashtra" },
  { "name": "Solapur", "lat": 17.68, "lon": 75.91, "state": "Maharashtra" },
  { "name": "Thane", "lat": 19.22, "lon": 73.00, "state": "Maharashtra" },
  { "name": "Wardha", "lat": 20.74, "lon": 78.60, "state": "Maharashtra" },
  { "name": "Washim", "lat": 20.11, "lon": 77.14, "state": "Maharashtra" },
  { "name": "Yavatmal", "lat": 20.39, "lon": 78.13, "state": "Maharashtra" }
]
