[
  { "name": "Angul", "lat": 20.84, "lon": 85.1, "state": "Odisha" },
  { "name": "Balangir", "lat": 20.71, "lon": 83.49, "state": "Odisha" },
  { "name": "Balasore", "lat": 21.49, "lon": 86.93, "state": "Odisha" },
  { "name": "Bargarh", "lat": 21.33, "lon": 83.62, "state": "Odisha" },
  { "name": "Bhadrak", "lat": 21.05, "lon": 86.5, "state": "Odisha" },
  { "name": "Boudh", "lat": 20.84, "lon": 84.33, "state": "Odisha" },
  { "name": "Cuttack", "lat": 20.46, "lon": 85.88, "state": "Odisha" },
  { "name": "Deogarh", "lat": 21.54, "lon": 84.73, "state": "Odisha" },
  { "name": "Dhenkanal", "lat": 20.67, "lon": 85.6, "state": "Odisha" },
  { "name": "Gajapati", "lat": 19.39, "lon": 84.13, "state": "Odisha" },
  { "name": "Ganjam", "lat": 19.39, "lon": 84.97, "state": "Odisha" },
  { "name": "Jagatsinghpur", "lat": 20.26, "lon": 86.17, "state": "Odisha" },
  { "name": "Jajpur", "lat": 20.85, "lon": 86.33, "state": "Odisha" },
  { "name": "Jharsuguda", "lat": 21.86, "lon": 84.01, "state": "Odisha" },
  { "name": "Kalahandi", "lat": 19.91, "lon": 83.17, "state": "Odisha" },
  { "name": "Kandhamal", "lat": 20.16, "lon": 84.13, "state": "Odisha" },
  { "name": "Kendrapara", "lat": 20.5, "lon": 86.42, "state": "Odisha" },
  { "name": "Kendujhar", "lat": 21.63, "lon": 85.58, "state": "Odisha" },
  { "name": "Khordha", "lat": 20.18, "lon": 85.62, "state": "Odisha" },
  { "name": "Koraput", "lat": 18.81, "lon": 82.71, "state": "Odisha" },
  { "name": "Malkangiri", "lat": 18.35, "lon": 81.89, "state": "Odisha" },
  { "name": "Mayurbhanj", "lat": 21.93, "lon": 86.73, "state": "Odisha" },
  { "name": "Nabarangpur", "lat": 19.23, "lon": 82.55, "state": "Odisha" },
  { "name": "Nayagarh", "lat": 20.13, "lon": 85.1, "state": "Odisha" },
  { "name": "Nuapada", "lat": 20.81, "lon": 82.53, "state": "Odisha" },
  { "name": "Puri", "lat": 19.8, "lon": 85.83, "state": "Odisha" },
  { "name": "Rayagada", "lat": 19.17, "lon": 83.42, "state": "Odisha" },
  { "name": "Sambalpur", "lat": 21.47, "lon": 83.97, "state": "Odisha" },
  { "name": "Subarnapur", "lat": 20.84, "lon": 83.92, "state": "Odisha" },
  { "name": "Sundargarh", "lat": 22.12, "lon": 84.03, "state": "Odisha" }
]
