[
  { "name": "Amritsar", "lat": 31.63, "lon": 74.87, "state": "Punjab" },
  { "name": "Barnala", "lat": 30.38, "lon": 75.55, "state": "Punjab" },
  { "name": "Bathinda", "lat": 30.21, "lon": 74.95, "state": "Punjab" },
  { "name": "Faridkot", "lat": 30.68, "lon": 74.76, "state": "Punjab" },
  { "name": "Fatehgarh Sahib", "lat": 30.65, "lon": 76.39, "state": "Punjab" },
  { "name": "Fazilka", "lat": 30.40, "lon": 74.03, "state": "Punjab" },
  { "name": "Ferozepur", "lat": 30.93, "lon": 74.61, "state": "Punjab" },
  { "name": "Gurdaspur", "lat": 32.04, "lon": 75.40, "state": "Punjab" },
  { "name": "Hoshiarpur", "lat": 31.53, "lon": 75.91, "state": "Punjab" },
  { "name": "Jalandhar", "lat": 31.33, "lon": 75.57, "state": "Punjab" },
  { "name": "Kapurthala", "lat": 31.38, "lon": 75.38, "state": "Punjab" },
  { "name": "Ludhiana", "lat": 30.90, "lon": 75.85, "state": "Punjab" },
  { "name": "Mansa", "lat": 29.99, "lon": 75.39, "state": "Punjab" },
  { "name": "Moga", "lat": 30.82, "lon": 75.17, "state": "Punjab" },
  { "name": "Mohali", "lat": 30.70, "lon": 76.72, "state": "Punjab" },
  { "name": "Muktsar", "lat": 30.48, "lon": 74.52, "state": "Punjab" },
  { "name": "Pathankot", "lat": 32.27, "lon": 75.65, "state": "Punjab" },
  { "name": "Patiala", "lat": 30.34, "lon": 76.38, "state": "Punjab" },
  { "name": "Rupnagar", "lat": 30.97, "lon": 76.53, "state": "Punjab" },
  { "name": "Sangrur", "lat": 30.25, "lon": 75.84, "state": "Punjab" },
  { "name": "Shaheed Bhagat Singh Nagar", "lat": 31.11, "lon": 76.12, "state": "Punjab" },
  { "name": "Tarn Taran", "lat": 31.45, "lon": 74.93, "state": "Punjab" }
]
