[
  { "name": "Ariyalur", "lat": 11.14, "lon": 79.08, "state": "Tamil Nadu" },
  { "name": "Chengalpattu", "lat": 12.69, "lon": 79.98, "state": "Tamil Nadu" },
  { "name": "Chennai", "lat": 13.08, "lon": 80.27, "state": "Tamil Nadu" },
  { "name": "Coimbatore", "lat": 11.02, "lon": 76.97, "state": "Tamil Nadu" },
  { "name": "Cuddalore", "lat": 11.75, "lon": 79.77, "state": "Tamil Nadu" },
  { "name": "Dharmapuri", "lat": 12.13, "lon": 78.16, "state": "Tamil Nadu" },
  { "name": "Dindigul", "lat": 10.36, "lon": 77.98, "state": "Tamil Nadu" },
  { "name": "Erode", "lat": 11.34, "lon": 77.72, "state": "Tamil Nadu" },
  { "name": "Kallakurichi", "lat": 11.74, "lon": 78.96, "state": "Tamil Nadu" },
  { "name": "Kanchipuram", "lat": 12.84, "lon": 79.71, "state": "Tamil Nadu" },
  { "name": "Kanyakumari", "lat": 8.09, "lon": 77.54, "state": "Tamil Nadu" },
  { "name": "Karur", "lat": 10.96, "lon": 78.08, "state": "Tamil Nadu" },
  { "name": "Krishnagiri", "lat": 12.52, "lon": 78.21, "state": "Tamil Nadu" },
  { "name": "Madurai", "lat": 9.93, "lon": 78.12, "state": "Tamil Nadu" },
  { "name": "Mayiladuthurai", "lat": 11.10, "lon": 79.65, "state": "Tamil Nadu" },
  { "name": "Nagapattinam", "lat": 10.77, "lon": 79.84, "state": "Tamil Nadu" },
  { "name": "Namakkal", "lat": 11.22, "lon": 78.17, "state": "Tamil Nadu" },
  { "name": "Nilgiris", "lat": 11.41, "lon": 76.70, "state": "Tamil Nadu" },
  { "name": "Perambalur", "lat": 11.23, "lon": 78.88, "state": "Tamil Nadu" },
  { "name": "Pudukkottai", "lat": 10.38, "lon": 78.82, "state": "Tamil Nadu" },
  { "name": "Ramanathapuram", "lat": 9.36, "lon": 78.83, "state": "Tamil Nadu" },
  { "name": "Ranipet", "lat": 12.92, "lon": 79.33, "state": "Tamil Nadu" },
  { "name": "Salem", "lat": 11.66, "lon": 78.15, "state": "Tamil Nadu" },
  { "name": "Sivaganga", "lat": 9.84, "lon": 78.48, "state": "Tamil Nadu" },
  { "name": "Tenkasi", "lat": 8.96, "lon": 77.31, "state": "Tamil Nadu" },
  { "name": "Thanjavur", "lat": 10.79, "lon": 79.14, "state": "Tamil Nadu" },
  { "name": "Theni", "lat": 10.01, "lon": 77.48, "state": "Tamil Nadu" },
  { "name": "Thoothukudi", "lat": 8.76, "lon": 78.13, "state": "Tamil Nadu" },
  { "name": "Tiruchirappalli", "lat": 10.79, "lon": 78.70, "state": "Tamil Nadu" },
  { "name": "Tirunelveli", "lat": 8.73, "lon": 77.69, "state": "Tamil Nadu" },
  { "name": "Tirupathur", "lat": 12.50, "lon": 78.57, "state": "Tamil Nadu" },
  { "name": "Tiruppur", "lat": 11.11, "lon": 77.34, "state": "Tamil Nadu" },
  { "name": "Tiruvallur", "lat": 13.13, "lon": 79.91, "state": "Tamil Nadu" },
  { "name": "Tiruvannamalai", "lat": 12.23, "lon": 79.07, "state": "Tamil Nadu" },
  { "name": "Tiruvarur", "lat": 10.77, "lon": 79.63, "state": "Tamil Nadu" },
  { "name": "Vellore", "lat": 12.92, "lon": 79.13, "state": "Tamil Nadu" },
  { "name": "Viluppuram", "lat": 11.94, "lon": 79.49, "state": "Tamil Nadu" },
  { "name": "Virudhunagar", "lat": 9.58, "lon": 77.96, "state": "Tamil Nadu" }
]
