[
  { "name": "Adilabad", "lat": 19.67, "lon": 78.53, "state": "Telangana" },
  { "name": "Bhadradri Kothagudem", "lat": 17.55, "lon": 80.62, "state": "Telangana" },
  { "name": "Hyderabad", "lat": 17.39, "lon": 78.49, "state": "Telangana" },
  { "name": "Jagtial", "lat": 18.79, "lon": 78.91, "state": "Telangana" },
  { "name": "Jangaon", "lat": 17.72, "lon": 79.15, "state": "Telangana" },
  { "name": "Jayashankar Bhupalpally", "lat": 18.39, "lon": 79.90, "state": "Telangana" },
  { "name": "Jogulamba Gadwal", "lat": 16.23, "lon": 77.80, "state": "Telangana" },
  { "name": "Kamareddy", "lat": 18.32, "lon": 78.34, "state": "Telangana" },
  { "name": "Karimnagar", "lat": 18.44, "lon": 79.13, "state": "Telangana" },
  { "name": "Khammam", "lat": 17.25, "lon": 80.15, "state": "Telangana" },
  { "name": "Komaram Bheem", "lat": 19.15, "lon": 79.48, "state": "Telangana" },
  { "name": "Mahabubabad", "lat": 17.60, "lon": 80.00, "state": "Telangana" },
  { "name": "Mahbubnagar", "lat": 16.74, "lon": 77.99, "state": "Telangana" },
  { "name": "Mancherial", "lat": 18.87, "lon": 79.47, "state": "Telangana" },
  { "name": "Medak", "lat": 18.05, "lon": 78.27, "state": "Telangana" },
  { "name": "Medchal-Malkajgiri", "lat": 17.62, "lon": 78.48, "state": "Telangana" },
  { "name": "Mulugu", "lat": 18.19, "lon": 79.95, "state": "Telangana" },
  { "name": "Nagarkurnool", "lat": 16.49, "lon": 78.32, "state": "Telangana" },
  { "name": "Nalgonda", "lat": 17.05, "lon": 79.27, "state": "Telangana" },
  { "name": "Narayanpet", "lat": 16.74, "lon": 77.49, "state": "Telangana" },
  { "name": "Nirmal", "lat": 19.10, "lon": 78.35, "state": "Telangana" },
  { "name": "Nizamabad", "lat": 18.67, "lon": 78.10, "state": "Telangana" },
  { "name": "Peddapalli", "lat": 18.61, "lon": 79.37, "state": "Telangana" },
  { "name": "Rajanna Sircilla", "lat": 18.39, "lon": 78.81, "state": "Telangana" },
  { "name": "Rangareddy", "lat": 17.31, "lon": 78.11, "state": "Telangana" },
  { "name": "Sangareddy", "lat": 17.62, "lon": 78.08, "state": "Telangana" },
  { "name": "Siddipet", "lat": 18.10, "lon": 78.85, "state": "Telangana" },
  { "name": "Suryapet", "lat": 17.14, "lon": 79.62, "state": "Telangana" },
  { "name": "Vikarabad", "lat": 17.34, "lon": 77.90, "state": "Telangana" },
  { "name": "Wanaparthy", "lat": 16.37, "lon": 78.07, "state": "Telangana" },
  { "name": "Warangal Rural", "lat": 17.97, "lon": 79.59, "state": "Telangana" },
  { "name": "Warangal Urban", "lat": 18.00, "lon": 79.58, "state": "Telangana" },
  { "name": "Yadadri Bhuvanagiri", "lat": 17.56, "lon": 78.87, "state": "Telangana" }
]
