[
  { "name": "Agra", "lat": 27.18, "lon": 78.02, "state": "Uttar Pradesh" },
  { "name": "Aligarh", "lat": 27.88, "lon": 78.08, "state": "Uttar Pradesh" },
  { "name": "Ambedkar Nagar", "lat": 26.40, "lon": 82.70, "state": "Uttar Pradesh" },
  { "name": "Amethi", "lat": 26.15, "lon": 81.80, "state": "Uttar Pradesh" },
  { "name": "Amroha", "lat": 28.90, "lon": 78.47, "state": "Uttar Pradesh" },
  { "name": "Auraiya", "lat": 26.47, "lon": 79.50, "state": "Uttar Pradesh" },
  { "name": "Ayodhya", "lat": 26.80, "lon": 82.20, "state": "Uttar Pradesh" },
  { "name": "Azamgarh", "lat": 26.07, "lon": 83.18, "state": "Uttar Pradesh" },
  { "name": "Baghpat", "lat": 28.95, "lon": 77.22, "state": "Uttar Pradesh" },
  { "name": "Bahraich", "lat": 27.57, "lon": 81.59, "state": "Uttar Pradesh" },
  { "name": "Ballia", "lat": 25.76, "lon": 84.15, "state": "Uttar Pradesh" },
  { "name": "Balrampur", "lat": 27.43, "lon": 82.18, "state": "Uttar Pradesh" },
  { "name": "Banda", "lat": 25.48, "lon": 80.34, "state": "Uttar Pradesh" },
  { "name": "Barabanki", "lat": 26.92, "lon": 81.19, "state": "Uttar Pradesh" },
  { "name": "Bareilly", "lat": 28.36, "lon": 79.42, "state": "Uttar Pradesh" },
  { "name": "Basti", "lat": 26.80, "lon": 82.74, "state": "Uttar Pradesh" },
  { "name": "Bhadohi", "lat": 25.40, "lon": 82.57, "state": "Uttar Pradesh" },
  { "name": "Bijnor", "lat": 29.37, "lon": 78.13, "state": "Uttar Pradesh" },
  { "name": "Budaun", "lat": 28.03, "lon": 79.11, "state": "Uttar Pradesh" },
  { "name": "Bulandshahr", "lat": 28.41, "lon": 77.85, "state": "Uttar Pradesh" },
  { "name": "Chandauli", "lat": 25.27, "lon": 83.27, "state": "Uttar Pradesh" },
  { "name": "Chitrakoot", "lat": 25.20, "lon": 80.90, "state": "Uttar Pradesh" },
  { "name": "Deoria", "lat": 26.50, "lon": 83.78, "state": "Uttar Pradesh" },
  { "name": "Etah", "lat": 27.56, "lon": 78.66, "state": "Uttar Pradesh" },
  { "name": "Etawah", "lat": 26.78, "lon": 79.02, "state": "Uttar Pradesh" },
  { "name": "Farrukhabad", "lat": 27.39, "lon": 79.58, "state": "Uttar Pradesh" },
  { "name": "Fatehpur", "lat": 25.93, "lon": 80.81, "state": "Uttar Pradesh" },
  { "name": "Firozabad", "lat": 27.15, "lon": 78.39, "state": "Uttar Pradesh" },
  { "name": "Gautam Buddha Nagar", "lat": 28.45, "lon": 77.50, "state": "Uttar Pradesh" },
  { "name": "Ghaziabad", "lat": 28.67, "lon": 77.42, "state": "Uttar Pradesh" },
  { "name": "Ghazipur", "lat": 25.58, "lon": 83.58, "state": "Uttar Pradesh" },
  { "name": "Gonda", "lat": 27.13, "lon": 81.96, "state": "Uttar Pradesh" },
  { "name": "Gorakhpur", "lat": 26.76, "lon": 83.37, "state": "Uttar Pradesh" },
  { "name": "Hamirpur", "lat": 25.96, "lon": 80.15, "state": "Uttar Pradesh" },
  { "name": "Hapur", "lat": 28.73, "lon": 77.78, "state": "Uttar Pradesh" },
  { "name": "Hardoi", "lat": 27.40, "lon": 80.13, "state": "Uttar Pradesh" },
  { "name": "Hathras", "lat": 27.60, "lon": 78.05, "state": "Uttar Pradesh" },
  { "name": "Jalaun", "lat": 26.14, "lon": 79.33, "state": "Uttar Pradesh" },
  { "name": "Jaunpur", "lat": 25.76, "lon": 82.68, "state": "Uttar Pradesh" },
  { "name": "Jhansi", "lat": 25.45, "lon": 78.57, "state": "Uttar Pradesh" },
  { "name": "Kannauj", "lat": 27.05, "lon": 79.92, "state": "Uttar Pradesh" },
  { "name": "Kanpur Dehat", "lat": 26.47, "lon": 79.92, "state": "Uttar Pradesh" },
  { "name": "Kanpur Nagar", "lat": 26.45, "lon": 80.35, "state": "Uttar Pradesh" },
  { "name": "Kasganj", "lat": 27.81, "lon": 78.64, "state": "Uttar Pradesh" },
  { "name": "Kaushambi", "lat": 25.53, "lon": 81.38, "state": "Uttar Pradesh" },
  { "name": "Kushinagar", "lat": 26.74, "lon": 83.89, "state": "Uttar Pradesh" },
  { "name": "Lakhimpur Kheri", "lat": 27.95, "lon": 80.78, "state": "Uttar Pradesh" },
  { "name": "Lalitpur", "lat": 24.69, "lon": 78.41, "state": "Uttar Pradesh" },
  { "name": "Lucknow", "lat": 26.85, "lon": 80.95, "state": "Uttar Pradesh" },
  { "name": "Maharajganj", "lat": 27.14, "lon": 83.56, "state": "Uttar Pradesh" },
  { "name": "Mahoba", "lat": 25.29, "lon": 79.87, "state": "Uttar Pradesh" },
  { "name": "Mainpuri", "lat": 27.23, "lon": 79.03, "state": "Uttar Pradesh" },
  { "name": "Mathura", "lat": 27.49, "lon": 77.67, "state": "Uttar Pradesh" },
  { "name": "Mau", "lat": 25.94, "lon": 83.56, "state": "Uttar Pradesh" },
  { "name": "Meerut", "lat": 28.98, "lon": 77.71, "state": "Uttar Pradesh" },
  { "name": "Mirzapur", "lat": 25.15, "lon": 82.57, "state": "Uttar Pradesh" },
  { "name": "Moradabad", "lat": 28.84, "lon": 78.78, "state": "Uttar Pradesh" },
  { "name": "Muzaffarnagar", "lat": 29.47, "lon": 77.70, "state": "Uttar Pradesh" },
  { "name": "Pilibhit", "lat": 28.63, "lon": 79.80, "state": "Uttar Pradesh" },
  { "name": "Pratapgarh", "lat": 25.89, "lon": 81.95, "state": "Uttar Pradesh" },
  { "name": "Prayagraj", "lat": 25.43, "lon": 81.85, "state": "Uttar Pradesh" },
  { "name": "Raebareli", "lat": 26.23, "lon": 81.23, "state": "Uttar Pradesh" },
  { "name": "Rampur", "lat": 28.81, "lon": 79.03, "state": "Uttar Pradesh" },
  { "name": "Saharanpur", "lat": 29.97, "lon": 77.55, "state": "Uttar Pradesh" },
  { "name": "Sambhal", "lat": 28.59, "lon": 78.57, "state": "Uttar Pradesh" },
  { "name": "Sant Kabir Nagar", "lat": 26.77, "lon": 83.03, "state": "Uttar Pradesh" },
  { "name": "Shahjahanpur", "lat": 27.88, "lon": 79.91, "state": "Uttar Pradesh" },
  { "name": "Shamli", "lat": 29.45, "lon": 77.31, "state": "Uttar Pradesh" },
  { "name": "Shravasti", "lat": 27.51, "lon": 82.04, "state": "Uttar Pradesh" },
  { "name": "Siddharthnagar", "lat": 27.25, "lon": 83.08, "state": "Uttar Pradesh" },
  { "name": "Sitapur", "lat": 27.57, "lon": 80.68, "state": "Uttar Pradesh" },
  { "name": "Sonbhadra", "lat": 24.69, "lon": 83.07, "state": "Uttar Pradesh" },
  { "name": "Sultanpur", "lat": 26.26, "lon": 82.07, "state": "Uttar Pradesh" },
  { "name": "Unnao", "lat": 26.55, "lon": 80.49, "state": "Uttar Pradesh" },
  { "name": "Varanasi", "lat": 25.32, "lon": 82.99, "state": "Uttar Pradesh" }
]
